[
  {
    "name": "Well 1A",
    "type": 1,
    "utilization": 70,
    "latitude": 40.6643,
    "longitude": -73.9385
  },
  {
    "name": "Well LZ",
    "type": 1,
    "utilization": 0,
    "latitude": 34.0194,
    "longitude": -118.4108
  },
  {
    "name": "Well C",
    "type": 1,
    "utilization": 30,
    "latitude": 41.8376,
    "longitude": -87.6818
  },
  {
    "name": "Well H",
    "type": 1,
    "utilization": 60,
    "latitude": 29.7805,
    "longitude": -95.3863
  },
  {
    "name": "Well PA",
    "type": 1,
    "utilization": 50,
    "latitude": 40.0094,
    "longitude": -75.1333
  },
  {
    "name": "Well PH",
    "type": 1,
    "utilization": 80,
    "latitude": 33.5722,
    "longitude": -112.088
  },
  {
    "name": "Well 1C",
    "type": 1,
    "utilization": 90,
    "latitude": 29.4724,
    "longitude": -98.5251
  },
  {
    "name": "Well 1D",
    "type": 2,
    "utilization": 36,
    "latitude": 30.8153,
    "longitude": -117.135
  },
  {
    "name": "Well D",
    "type": 1,
    "utilization": 72,
    "latitude": 32.7757,
    "longitude": -96.7967
  },
  {
    "name": "Well 1J",
    "type": 1,
    "utilization": 945942,
    "latitude": 37.2969,
    "longitude": -121.8193
  },
  {
    "name": "Well A",
    "type": 1,
    "utilization": 44,
    "latitude": 30.3072,
    "longitude": -97.756
  },
  {
    "name": "Well J",
    "type": 1,
    "utilization": 55,
    "latitude": 30.337,
    "longitude": -81.6613
  },
  {
    "name": "Well SF",
    "type": 1,
    "utilization": 0,
    "latitude": 37.7751,
    "longitude": -122.4193
  },
  {
    "name": "Well IN",
    "type": 1,
    "utilization": 12,
    "latitude": 39.7767,
    "longitude": -86.1459
  },
  {
    "name": "Well C2",
    "type": 1,
    "utilization": 8,
    "latitude": 39.9848,
    "longitude": -82.985
  },
  {
    "name": "Well FW",
    "type": 1,
    "utilization": 33,
    "latitude": 32.7795,
    "longitude": -97.3463
  },
  {
    "name": "Well CH",
    "type": 1,
    "utilization": 77,
    "latitude": 35.2087,
    "longitude": -80.8307
  },
  {
    "name": "Well D1B",
    "type": 1,
    "utilization": 47,
    "latitude": 42.383,
    "longitude": -83.1022
  },
  {
    "name": "Well EP",
    "type": 1,
    "utilization": 40,
    "latitude": 31.8484,
    "longitude": -106.427
  },
  {
    "name": "Well S",
    "type": 1,
    "utilization": 68,
    "latitude": 47.6205,
    "longitude": -122.3509
  },
  {
    "name": "Well D",
    "type": 1,
    "utilization": 0,
    "latitude": 39.7618,
    "longitude": -104.8806
  },
  {
    "name": "Well W",
    "type": 1,
    "utilization": 86,
    "latitude": 38.9041,
    "longitude": -77.0171
  },
  {
    "name": "Well ME",
    "type": 1,
    "utilization": 0,
    "latitude": 35.1035,
    "longitude": -89.9785
  },
  {
    "name": "Well B1",
    "type": 2,
    "utilization": 65,
    "latitude": 42.332,
    "longitude": -70.0202
  },
  {
    "name": "Well N2",
    "type": 1,
    "utilization": 55,
    "latitude": 36.1718,
    "longitude": -86.785
  },
  {
    "name": "Well B3",
    "type": 1,
    "utilization": 13,
    "latitude": 39.3002,
    "longitude": -76.6105
  },
  {
    "name": "Well OC",
    "type": 1,
    "utilization": 87,
    "latitude": 35.4671,
    "longitude": -97.5137
  },
  {
    "name": "Well PT",
    "type": 1,
    "utilization": 74,
    "latitude": 45.537,
    "longitude": -122.65
  },
  {
    "name": "Well LV",
    "type": 1,
    "utilization": 39,
    "latitude": 36.2277,
    "longitude": -115.264
  },
  {
    "name": "Well L1",
    "type": 1,
    "utilization": 0,
    "latitude": 38.1781,
    "longitude": -85.6667
  },
  {
    "name": "Well M1A",
    "type": 1,
    "utilization": 28,
    "latitude": 43.0633,
    "longitude": -87.9667
  },
  {
    "name": "Well A3A",
    "type": 1,
    "utilization": 0,
    "latitude": 35.1056,
    "longitude": -106.6474
  },
  {
    "name": "Well T",
    "type": 1,
    "utilization": 39,
    "latitude": 32.1543,
    "longitude": -110.8711
  },
  {
    "name": "Well F1A",
    "type": 1,
    "utilization": 45,
    "latitude": 36.7827,
    "longitude": -119.7945
  },
  {
    "name": "Well S2",
    "type": 1,
    "utilization": 0,
    "latitude": 38.5666,
    "longitude": -121.4686
  },
  {
    "name": "Well LB",
    "type": 1,
    "utilization": 70,
    "latitude": 33.8091,
    "longitude": -118.1553
  },
  {
    "name": "Well KC",
    "type": 1,
    "utilization": 19,
    "latitude": 39.1252,
    "longitude": -94.5511
  },
  {
    "name": "Well M5",
    "type": 1,
    "utilization": 0,
    "latitude": 33.4019,
    "longitude": -111.7174
  },
  {
    "name": "Well AT",
    "type": 1,
    "utilization": 86,
    "latitude": 33.7629,
    "longitude": -84.4227
  },
  {
    "name": "Well VB",
    "type": 1,
    "utilization": 51,
    "latitude": 36.7793,
    "longitude": -76.024
  },
  {
    "name": "Well O1",
    "type": 1,
    "utilization": 90,
    "latitude": 41.2647,
    "longitude": -96.0419
  },
  {
    "name": "Well CS1",
    "type": 1,
    "utilization": 47,
    "latitude": 38.8673,
    "longitude": -104.7607
  },
  {
    "name": "Well R",
    "type": 1,
    "utilization": 67,
    "latitude": 35.8302,
    "longitude": -78.6414
  },
  {
    "name": "Well M6",
    "type": 2,
    "utilization": 66,
    "latitude": 26.7752,
    "longitude": -79.2086
  },
  {
    "name": "Well OK1",
    "type": 2,
    "utilization": 60,
    "latitude": 37.7699,
    "longitude": -124.2256
  },
  {
    "name": "Well M2P",
    "type": 1,
    "utilization": 30,
    "latitude": 44.9633,
    "longitude": -93.2683
  },
  {
    "name": "Well TO",
    "type": 1,
    "utilization": 80,
    "latitude": 36.1279,
    "longitude": -95.9023
  },
  {
    "name": "Well C2",
    "type": 1,
    "utilization": 0,
    "latitude": 41.4781,
    "longitude": -81.6795
  },
  {
    "name": "Well WI",
    "type": 1,
    "utilization": 79,
    "latitude": 37.6907,
    "longitude": -97.3427
  },
  {
    "name": "Well N1O",
    "type": 1,
    "utilization": 0,
    "latitude": 30.0686,
    "longitude": -89.939
  }
]
